city,lon,lat
石家庄,114.502464,38.045475
太原,112.549248,37.857014
沈阳,123.429092,41.796768
哈尔滨,126.642464,45.756966
南京,118.76741,32.041546
南昌,115.892151,28.676493
济南,117.000923,36.675808
郑州,113.665413,34.757977
武汉,114.298569,30.584354
长沙,112.982277,28.19409
广州,113.28064,23.125177
南宁,108.320007,22.82402
成都,104.065735,30.659462
昆明,102.71225,25.040609
重庆,106.504959,29.533155
西安,108.948021,34.263161
兰州,103.4,36.03
呼和浩特,111.46,40.48
